[
    {
        "address": "351 East 74th Street,  2nd Floor,",
        "title": "A BAFFLED LOT -",
        "hours": "Saturdays From  7:30 AM to 8:30 AM Meeting Type OD = Open Discussion meeting",
        "wheelchairAccess": false
    },
    {
        "address": "48 East 80th Street, 2nd Floor Library, Ring Bell Next to Sign.,",
        "title": "A.A. TRADITIONS AND HISTORY -",
        "hours": "Tuesdays From  7:00 PM to 8:00 PM Meeting Type T = Tradition meeting",
        "wheelchairAccess": true
    },
    {
        "address": "184 East 76th Street, Basement,",
        "title": "ACTIVE - Active",
        "hours": "Wednesdays From  6:00 PM to 7:00 PM Meeting Type S = Step meeting",
        "wheelchairAccess": true
    },
    {
        "address": "351 East 74th Street, 2nd Floor,",
        "title": "AFTERNOON AWAKENING -",
        "hours": "Mondays From  2:30 PM to 3:30 PM Meeting Type B = Beginners meeting Special Interest Living Sober\nTuesdays From  2:30 PM to 3:30 PM Meeting Type S = Step meeting\nWednesdays From  2:30 PM to 3:30 PM Meeting Type BB = Big Book meeting\nThursdays From  2:30 PM to 3:30 PM Meeting Type S = Step meeting\nFridays From  2:30 PM to 3:30 PM Meeting Type S = Step meeting",
        "wheelchairAccess": false
    },
    {
        "address": "1393 York Avenue,",
        "title": "ATLANTIC ELEVENTH STEP MEDITATION -",
        "hours": "Mondays From  7:15 PM to 8:15 PM Meeting Type S = Step meeting",
        "wheelchairAccess": false
    },
    {
        "address": "520 Park Avenue,",
        "title": "ATLANTIC GROUP (:I) - Atlantic    (:I)",
        "hours": "Tuesdays From  7:00 PM to 8:00 PM Meeting Type O = Open meeting",
        "wheelchairAccess": true
    },
    {
        "address": "337 E. 74th St.,",
        "title": "ATLANTIC GROUP (:II) -",
        "hours": "Thursdays From  7:00 PM to 8:00 PM Meeting Type B = Beginners meeting",
        "wheelchairAccess": true
    },
    {
        "address": "1157 Lexington Avenue,",
        "title": "ATLANTIC GROUP (:III) -",
        "hours": "Saturdays From  6:00 PM to 7:00 PM Meeting Type O = Open meeting",
        "wheelchairAccess": true
    },
    {
        "address": "420 East 76th Street,",
        "title": "BREAKING THROUGH - Breaking Through",
        "hours": "Fridays From  6:30 PM to 7:30 PM Meeting Type B = Beginners meeting",
        "wheelchairAccess": true
    },
    {
        "address": "230 East 90th Street, Downstairs,",
        "title": "CAME TO BELIEVE - Came To Believe",
        "hours": "Sundays From  3:30 PM to 4:30 PM Meeting Type B = Beginners meeting",
        "wheelchairAccess": false
    },
    {
        "address": "65 East 89th Street, Basement,",
        "title": "CARNEGIE HILL - Carnegie Hill",
        "hours": "Tuesdays From  6:15 PM to 7:15 PM Meeting Type C = Closed Discussion meeting",
        "wheelchairAccess": false
    },
    {
        "address": "865 Madison Avenue, Basement,",
        "title": "CENTRAL - Central I",
        "hours": "Sundays From  5:00 PM to 5:45 PM Meeting Type O = Open meeting Special Interest Meditation\nSundays From  6:00 PM to 7:00 PM Meeting Type S = Step meeting\nSundays From  6:00 PM to 7:00 PM Meeting Type OD = Open Discussion meeting\nSundays From  7:15 PM to 8:15 PM Meeting Type B = Beginners meeting",
        "wheelchairAccess": false
    },
    {
        "address": "1296 Lexington Avenue, Basement,",
        "title": "CHAPTER FIVE - Chapter Five     (:I)",
        "hours": "Mondays From  7:15 AM to 8:15 AM Meeting Type BB = Big Book meeting\nTuesdays From  7:15 AM to 8:15 AM Meeting Type OD = Open Discussion meeting\nWednesdays From  7:15 AM to 8:15 AM Meeting Type S = Step meeting\nThursdays From  7:15 AM to 8:15 AM Meeting Type OD = Open Discussion meeting\nFridays From  7:15 AM to 8:15 AM Meeting Type OD = Open Discussion meeting\nSundays From  8:00 AM to 9:00 AM Meeting Type OD = Open Discussion meeting\nSaturdays From  8:00 AM to 9:00 AM Meeting Type OD = Open Discussion meeting\nFridays From  6:15 PM to 7:30 PM Meeting Type S = Step meeting Special Interest Women\nSundays From  7:00 PM to 8:00 PM Meeting Type C = Closed Discussion meeting\nWednesdays From  7:30 PM to 9:00 PM Meeting Type B = Beginners meeting\nThursdays From  8:00 PM to 9:15 PM Meeting Type BB = Big Book meeting",
        "wheelchairAccess": false
    },
    {
        "address": "351 East 74th Street, Mazaryk Room,",
        "title": "ELEVENTH STEP AT JAN HUS - Eleventh Step At Jan Hus",
        "hours": "Sundays From  9:00 AM to 10:00 AM Meeting Type S = Step meeting",
        "wheelchairAccess": false
    },
    {
        "address": "1157 Lexington Avenue, 1st Floor,",
        "title": "FEARLESS -",
        "hours": "Fridays From  7:30 PM to 8:30 PM Meeting Type C = Closed Discussion meeting",
        "wheelchairAccess": false
    },
    {
        "address": "351 East 74th Street, Mazaryk Room,",
        "title": "FRIDAY CENTRAL -",
        "hours": "Fridays From  6:30 PM to 7:30 PM Meeting Type C = Closed Discussion meeting",
        "wheelchairAccess": false
    },
    {
        "address": "351 East 74th Street, 2nd Floor,",
        "title": "FRIDAY NIGHT GAY MEN & WOMEN - Friday Night Gay Men & Women",
        "hours": "Fridays From  8:00 PM to 9:00 PM Meeting Type S = Step meeting Special Interest Gay, Lesbian and Bisexual",
        "wheelchairAccess": false
    },
    {
        "address": "65 East 89th Street,",
        "title": "FRIDAY NIGHT MEN'S STEP - Friday Night Men's Step",
        "hours": "Fridays From  6:15 PM to 7:15 PM Meeting Type S = Step meeting Special Interest Men",
        "wheelchairAccess": false
    },
    {
        "address": "65 East 89th Street - Rectory basement,",
        "title": "HUMANISTS TOO -",
        "hours": "Mondays From  6:15 PM to 7:15 PM Special Interest Agnostic",
        "wheelchairAccess": false
    },
    {
        "address": "351 East 74th Street, 2nd Floor,",
        "title": "I'M ALL IN -",
        "hours": "Tuesdays From  12:30 PM to 1:30 PM Meeting Type B = Beginners meeting\nWednesdays From  12:30 PM to 1:30 PM Meeting Type B = Beginners meeting\nThursdays From  12:30 PM to 1:30 PM Meeting Type B = Beginners meeting\nFridays From  12:30 PM to 1:30 PM Meeting Type B = Beginners meeting\nSaturdays From  12:30 PM to 1:30 PM Meeting Type B = Beginners meeting\nMondays From  12:30 PM to 1:30 PM Meeting Type B = Beginners meeting",
        "wheelchairAccess": false
    },
    {
        "address": "135 East 96th Street,",
        "title": "INTO ACTION MANHATTAN - Into Action Manhattan",
        "hours": "Wednesdays From  6:30 PM to 7:30 PM Meeting Type S = Step meeting Special Interest Big Book Workshop",
        "wheelchairAccess": false
    },
    {
        "address": "351 East 74th Street, 2nd Floor Kitchen,",
        "title": "KITCHEN TABLE MEETING -",
        "hours": "Saturdays From  11:00 AM to 12:00 PM Meeting Type C = Closed Discussion meeting",
        "wheelchairAccess": false
    },
    {
        "address": "2 East 90th Street,",
        "title": "LENOX HILL - Lenox Hill",
        "hours": "Mondays From  7:00 PM to 8:00 PM Meeting Type B = Beginners meeting\nMondays From  7:00 PM to 8:00 PM Meeting Type S = Step meeting\nThursdays From  7:00 PM to 8:00 PM Meeting Type O = Open meeting\nThursdays From  8:15 PM to 9:00 PM Meeting Type B = Beginners meeting\nMondays From  8:15 PM to 9:00 PM Meeting Type C = Closed Discussion meeting",
        "wheelchairAccess": false
    },
    {
        "address": "1157 Lexington Avenue,",
        "title": "LEX 80 STEP -",
        "hours": "Wednesdays From  6:30 PM to 7:30 PM Meeting Type S = Step meeting Special Interest Twelve Steps",
        "wheelchairAccess": true
    },
    {
        "address": "420 East 76th Street,",
        "title": "LIVE AND LET LIVE - Live And Let Live",
        "hours": "Tuesdays From  7:00 PM to 8:00 PM Meeting Type B = Beginners meeting Special Interest Gay, Lesbian and Bisexual\nThursdays From  7:00 PM to 8:00 PM Meeting Type OD = Open Discussion meeting Special Interest Gay, Lesbian and Bisexual\nTuesdays From  8:30 PM to 9:30 PM Meeting Type C = Closed Discussion meeting Special Interest Gay, Lesbian and Bisexual",
        "wheelchairAccess": true
    },
    {
        "address": "351 East 74th Street, 2nd Floor,",
        "title": "MADISON 73 - Madison 73",
        "hours": "Saturdays From  7:00 PM to 8:00 PM Meeting Type B = Beginners meeting\nSaturdays From  7:00 PM to 8:00 PM Meeting Type S = Step meeting",
        "wheelchairAccess": false
    },
    {
        "address": "351 East 74th Street, 2nd Floor Chapel Room,",
        "title": "MEDITATION (EXPECT MIRACLES) - Meditation (Expect Miracles)",
        "hours": "Thursdays From  11:00 AM to 12:00 PM Meeting Type OD = Open Discussion meeting\nFridays From  11:00 AM to 12:00 PM Meeting Type OD = Open Discussion meeting\nMondays From  11:00 AM to 12:00 PM Meeting Type OD = Open Discussion meeting\nTuesdays From  11:00 AM to 12:00 PM Meeting Type OD = Open Discussion meeting\nWednesdays From  11:00 AM to 12:00 PM Meeting Type OD = Open Discussion meeting\nWednesdays From  8:00 PM to 9:00 PM Meeting Type OD = Open Discussion meeting",
        "wheelchairAccess": false
    },
    {
        "address": "1285 Madison Avenue,",
        "title": "MEN'S NYC BIG BOOK STEP STUDY -",
        "hours": "Wednesdays From  7:00 PM to 8:30 PM Meeting Type BB = Big Book meeting",
        "wheelchairAccess": false
    },
    {
        "address": "48 East 84th Street,",
        "title": "METROPOLITAN - Metropolitan",
        "hours": "Saturdays From  3:15 PM to 4:15 PM Meeting Type S = Step meeting Special Interest First Step Workshop\nSundays From  6:15 PM to 7:15 PM Meeting Type B = Beginners meeting\nTuesdays From  6:30 PM to 7:30 PM\nSundays From  7:30 PM to 8:30 PM Meeting Type S = Step meeting\nTuesdays From  7:45 PM to 8:45 PM Meeting Type B = Beginners meeting",
        "wheelchairAccess": true
    },
    {
        "address": "408 East 82nd Street,  Rectory,",
        "title": "MONDAY EAST TOPIC - Monday East Topic",
        "hours": "Mondays From  7:00 PM to 8:00 PM Meeting Type C = Closed Discussion meeting",
        "wheelchairAccess": false
    },
    {
        "address": "351 East 74th Street, 2nd Floor Front Room,",
        "title": "MONDAY WOMEN -",
        "hours": "Mondays From  7:15 PM to 8:15 PM Meeting Type C = Closed Discussion meeting Special Interest Women",
        "wheelchairAccess": false
    },
    {
        "address": "351 East 74th Street,  2nd Floor - Front Room,",
        "title": "MORNING REFLECTIONS -",
        "hours": "Wednesdays From  9:30 AM to 10:30 AM Meeting Type OD = Open Discussion meeting Special Interest Daily Reflections\nThursdays From  9:30 AM to 10:30 AM Meeting Type OD = Open Discussion meeting Special Interest Daily Reflections\nFridays From  9:30 AM to 10:30 AM Meeting Type OD = Open Discussion meeting Special Interest Daily Reflections\nMondays From  9:30 AM to 10:30 AM Meeting Type OD = Open Discussion meeting Special Interest Daily Reflections\nTuesdays From  9:30 AM to 10:30 AM Meeting Type OD = Open Discussion meeting Special Interest Daily Reflections",
        "wheelchairAccess": false
    },
    {
        "address": "125 East 85th Street, Ramaz School Entrance,",
        "title": "NEW CHOICES - New Choices",
        "hours": "Mondays From  6:30 PM to 7:30 PM Meeting Type C = Closed Discussion meeting\nWednesdays From  6:30 PM to 7:30 PM Meeting Type S = Step meeting",
        "wheelchairAccess": true
    },
    {
        "address": "351 East 74th Street,  2nd Floor, Library Room,",
        "title": "OPEN BOOK -",
        "hours": "Mondays From  7:15 PM to 8:15 PM Meeting Type BB = Big Book meeting",
        "wheelchairAccess": false
    },
    {
        "address": "351 East 74th Street, 2nd Floor Kitchen,",
        "title": "OUR PRIMARY PURPOSE -",
        "hours": "Saturdays From  9:30 AM to 10:30 AM Meeting Type S = Step meeting Special Interest Women",
        "wheelchairAccess": false
    },
    {
        "address": "865 Madison Avenue, 3rd Floor,",
        "title": "PARK BENCH   (:II) -",
        "hours": "Wednesdays From  12:30 PM to 1:30 PM Meeting Type C = Closed Discussion meeting\nThursdays From  12:30 PM to 1:30 PM Meeting Type C = Closed Discussion meeting",
        "wheelchairAccess": true
    },
    {
        "address": "62 East 92nd Street, Basement,",
        "title": "PARK MADISON - Park Madison",
        "hours": "Fridays From  6:45 PM to 7:45 PM Meeting Type C = Closed Discussion meeting\nTuesdays From  6:45 PM to 7:45 PM Meeting Type B = Beginners meeting\nTuesdays From  8:00 PM to 9:00 PM Meeting Type C = Closed Discussion meeting\nFridays From  8:00 PM to 9:00 PM Meeting Type S = Step meeting",
        "wheelchairAccess": true
    },
    {
        "address": "351 East 74th Street, 2nd Floor Front Room,",
        "title": "PERSEVERANCE - Perseverance",
        "hours": "Saturdays From  11:00 AM to 12:00 PM Meeting Type OD = Open Discussion meeting",
        "wheelchairAccess": false
    },
    {
        "address": "420 East 87th Street, Basement,",
        "title": "RECOVERY ROOM - Recovery Room",
        "hours": "Wednesdays From  7:00 PM to 8:00 PM Meeting Type B = Beginners meeting",
        "wheelchairAccess": false
    },
    {
        "address": "593 Park Avenue,  5th Floor Library,",
        "title": "RENEWAL EAST -",
        "hours": "Wednesdays From  6:30 PM to 7:30 PM Meeting Type C = Closed Discussion meeting",
        "wheelchairAccess": true
    },
    {
        "address": "65 East 89th Street, Ring Red Buzzer, Chelsea Room,",
        "title": "RENEWAL NORTH -",
        "hours": "Thursdays From  6:30 PM to 7:30 PM Meeting Type OD = Open Discussion meeting",
        "wheelchairAccess": true
    },
    {
        "address": "865 Madison Avenue,  Basement,",
        "title": "RHINELANDER - Rhinelander",
        "hours": "Mondays From  6:00 PM to 7:00 PM Meeting Type OD = Open Discussion meeting\nThursdays From  6:00 PM to 7:00 PM Meeting Type S = Step meeting\nThursdays From  7:00 PM to 8:00 PM Meeting Type B = Beginners meeting\nMondays From  7:00 PM to 8:00 PM Meeting Type B = Beginners meeting",
        "wheelchairAccess": false
    },
    {
        "address": "Church of the Good Shepard, 543 Main St., Basement 10044,",
        "title": "ROOSEVELT ISLAND SERENITY -",
        "hours": "Saturdays From  6:30 PM to 7:30 PM Meeting Type C = Closed Discussion meeting",
        "wheelchairAccess": true
    },
    {
        "address": "413 East 79th Street,  Basement,",
        "title": "SEVENTY-NINTH STREET WORKSHOP - Seventy-Ninth Street Workshop    (:I)",
        "hours": "Tuesdays From  6:00 AM to 7:00 AM Meeting Type C = Closed Discussion meeting\nMondays From  6:00 AM to 7:00 AM Meeting Type C = Closed Discussion meeting Special Interest Daily Reflections\nFridays From  6:00 AM to 7:00 AM Meeting Type BB = Big Book meeting\nThursdays From  6:00 AM to 7:00 AM Meeting Type S = Step meeting\nWednesdays From  6:00 AM to 7:00 AM Meeting Type C = Closed Discussion meeting Special Interest As Bill Sees It\nTuesdays From  7:15 AM to 8:15 AM Meeting Type C = Closed Discussion meeting\nMondays From  7:15 AM to 8:15 AM Meeting Type C = Closed Discussion meeting\nFridays From  7:15 AM to 8:15 AM Meeting Type C = Closed Discussion meeting\nThursdays From  7:15 AM to 8:15 AM Meeting Type C = Closed Discussion meeting\nWednesdays From  7:15 AM to 8:15 AM Meeting Type C = Closed Discussion meeting\nSaturdays From  8:00 AM to 9:00 AM Meeting Type C = Closed Discussion meeting\nSundays From  8:00 AM to 9:00 AM Meeting Type C = Closed Discussion meeting\nWednesdays From  8:30 AM to 9:30 AM Meeting Type T = Tradition meeting\nTuesdays From  8:30 AM to 9:30 AM Meeting Type C = Closed Discussion meeting Special Interest Promises\nMondays From  8:30 AM to 9:30 AM Meeting Type C = Closed Discussion meeting\nFridays From  8:30 AM to 9:30 AM Meeting Type S = Step meeting\nThursdays From  8:30 AM to 9:30 AM Meeting Type BB = Big Book meeting\nThursdays From  10:00 AM to 11:00 AM Meeting Type T = Tradition meeting\nWednesdays From  10:00 AM to 11:00 AM Meeting Type C = Closed Discussion meeting\nTuesdays From  10:00 AM to 11:00 AM Meeting Type S = Step meeting\nMondays From  10:00 AM to 11:00 AM Meeting Type B = Beginners meeting\nSaturdays From  10:00 AM to 11:00 AM Meeting Type C = Closed Discussion meeting Special Interest Children Welcome\nSundays From  10:00 AM to 11:00 AM Meeting Type S = Step meeting\nFridays From  10:00 AM to 11:00 AM Meeting Type BB = Big Book meeting\nThursdays From  12:30 PM to 1:30 PM Meeting Type C = Closed Discussion meeting\nWednesdays From  12:30 PM to 1:30 PM Meeting Type S = Step meeting\nTuesdays From  12:30 PM to 1:30 PM Meeting Type C = Closed Discussion meeting\nMondays From  12:30 PM to 1:30 PM Meeting Type B = Beginners meeting\nSaturdays From  12:30 PM to 1:30 PM Meeting Type C = Closed Discussion meeting\nSundays From  12:30 PM to 1:30 PM Meeting Type C = Closed Discussion meeting\nFridays From  12:30 PM to 1:30 PM Meeting Type C = Closed Discussion meeting\nSaturdays From  2:00 PM to 3:00 PM Meeting Type C = Closed Discussion meeting Special Interest Women\nSundays From  2:00 PM to 3:00 PM Meeting Type C = Closed Discussion meeting Special Interest Men\nFridays From  4:00 PM to 5:00 PM Meeting Type S = Step meeting Special Interest First Step Workshop\nThursdays From  4:00 PM to 5:00 PM Meeting Type C = Closed Discussion meeting\nWednesdays From  4:00 PM to 5:00 PM Meeting Type B = Beginners meeting\nTuesdays From  4:00 PM to 5:00 PM Meeting Type BB = Big Book meeting\nMondays From  4:00 PM to 5:00 PM Meeting Type B = Beginners meeting\nSaturdays From  4:00 PM to 5:00 PM Meeting Type S = Step meeting Special Interest Steps 1-2-3\nSundays From  4:00 PM to 5:00 PM Meeting Type C = Closed Discussion meeting Special Interest As Bill Sees It\nFridays From  6:15 PM to 7:15 PM Meeting Type C = Closed Discussion meeting Special Interest Children Welcome\nThursdays From  6:15 PM to 7:15 PM Meeting Type O = Open meeting\nWednesdays From  6:15 PM to 7:15 PM Meeting Type B = Beginners meeting\nTuesdays From  6:15 PM to 7:15 PM Meeting Type S = Step meeting\nMondays From  6:15 PM to 7:15 PM Meeting Type T = Tradition meeting\nSaturdays From  6:15 PM to 7:15 PM Meeting Type B = Beginners meeting\nSundays From  6:15 PM to 7:15 PM Meeting Type OD = Open Discussion meeting\nSundays From  8:00 PM to 9:00 PM Meeting Type C = Closed Discussion meeting Special Interest Promises\nFridays From  8:00 PM to 9:00 PM Meeting Type B = Beginners meeting\nWednesdays From  8:00 PM to 9:00 PM Meeting Type BB = Big Book meeting\nTuesdays From  8:00 PM to 9:00 PM Meeting Type C = Closed Discussion meeting Special Interest Sponsorship Workshop\nSaturdays From  8:00 PM to 9:00 PM Meeting Type O = Open meeting\nSaturdays From  10:00 PM to 11:00 PM Meeting Type C = Closed Discussion meeting\nSundays From  10:00 PM to 11:00 PM Meeting Type C = Closed Discussion meeting\nFridays From  10:00 PM to 11:00 PM Meeting Type C = Closed Discussion meeting\nThursdays From  10:00 PM to 11:00 PM Meeting Type S = Step meeting\nTuesdays From  10:00 PM to 11:00 PM Meeting Type C = Closed Discussion meeting\nMondays From  10:00 PM to 11:00 PM Meeting Type B = Beginners meeting\nWednesdays From  10:00 PM to 11:00 PM Meeting Type C = Closed Discussion meeting",
        "wheelchairAccess": false
    },
    {
        "address": "351 East 74th Street, Sanctuary,",
        "title": "SOBER WOMEN - Sober Women",
        "hours": "Saturdays From  9:15 AM to 10:15 AM Meeting Type C = Closed Discussion meeting Special Interest Women",
        "wheelchairAccess": false
    },
    {
        "address": "310 East 67th Street, Auditorium,",
        "title": "STEP BY STEP - Step By Step",
        "hours": "Saturdays From  10:00 AM to 11:00 AM Meeting Type S = Step meeting",
        "wheelchairAccess": true
    },
    {
        "address": "331 E 70th St,",
        "title": "SUNDAY ON 70TH - Sunday On 70th",
        "hours": "Sundays From  10:00 AM to 11:00 AM Meeting Type B = Beginners meeting",
        "wheelchairAccess": false
    },
    {
        "address": "411 East 68th Street,",
        "title": "SUTTON - Sutton",
        "hours": "Saturdays From  6:30 PM to 7:30 PM Meeting Type OD = Open Discussion meeting",
        "wheelchairAccess": true
    },
    {
        "address": "2 East 90th Street, Basement,",
        "title": "THREE TWELVES - Three Twelves",
        "hours": "Tuesdays From  12:00 PM to 1:00 PM Meeting Type C = Closed Discussion meeting\nThursdays From  12:00 PM to 1:00 PM Meeting Type C = Closed Discussion meeting",
        "wheelchairAccess": false
    },
    {
        "address": "341 East 87th Street,  Choir Room (Ring Bell),",
        "title": "TRINITY - Trinity",
        "hours": "Fridays From  7:00 PM to 8:00 PM Meeting Type S = Step meeting\nTuesdays From  7:15 PM to 8:15 PM Meeting Type B = Beginners meeting\nFridays From  8:30 PM to 9:30 PM Meeting Type B = Beginners meeting\nTuesdays From  8:30 PM to 9:30 PM Meeting Type C = Closed Discussion meeting",
        "wheelchairAccess": false
    },
    {
        "address": "351 East 74th Street,  2nd Floor Museum Room,",
        "title": "WE HUMANISTS - We Humanists",
        "hours": "Wednesdays From  6:15 PM to 7:15 PM Meeting Type C = Closed Discussion meeting Special Interest Agnostic",
        "wheelchairAccess": false
    },
    {
        "address": "351 East 74th Street, 2nd Floor Kitchen,",
        "title": "WEDNESDAY EAST ON THURSDAY - Wednesday East",
        "hours": "Thursdays From  8:00 PM to 9:00 PM Meeting Type C = Closed Discussion meeting",
        "wheelchairAccess": false
    },
    {
        "address": "351 East 74th Street,  2nd Floor,  Masaryk Room,",
        "title": "YORKVILLE-BUTTERFIELD - Yorkville",
        "hours": "Thursdays From  8:00 PM to 9:00 PM Meeting Type C = Closed Discussion meeting",
        "wheelchairAccess": false
    }
]