[
    {
        "address": "7 East 10th Street, 2nd Floor,",
        "title": "12 CONCEPTS WORKSHOP -",
        "hours": "Wednesdays From  8:15 PM to 9:15 PM Meeting Type C = Closed Discussion meeting",
        "wheelchairAccess": false
    },
    {
        "address": "155 East 22nd Street, Basement,",
        "title": "22 BELOW - Twenty-Two Below",
        "hours": "Thursdays From  12:15 PM to 1:15 PM Meeting Type OD = Open Discussion meeting\nFridays From  12:15 PM to 1:15 PM Meeting Type C = Closed Discussion meeting\nMondays From  12:15 PM to 1:15 PM Meeting Type BB = Big Book meeting\nTuesdays From  12:15 PM to 1:15 PM Meeting Type B = Beginners meeting Special Interest Living Sober\nWednesdays From  12:15 PM to 1:15 PM Meeting Type S = Step meeting",
        "wheelchairAccess": false
    },
    {
        "address": "61 Fourth Avenue, 3rd Floor,",
        "title": "AA AT THE THREE JEWELS - MEDITATION -",
        "hours": "Thursdays From  6:00 PM to 7:15 PM Special Interest Meditation\nSundays From  7:00 PM to 8:30 PM Special Interest Meditation",
        "wheelchairAccess": false
    },
    {
        "address": "208 West 13th Street, 3rd Floor, Room #312,",
        "title": "AGNOSTICS AT NOON - Agnostics At Noon",
        "hours": "Thursdays From  12:00 PM to 1:00 PM Meeting Type C = Closed Discussion meeting Special Interest Agnostic",
        "wheelchairAccess": false
    },
    {
        "address": "123 East 15th Street,  2nd Floor Conference Room,",
        "title": "ALIVE AGAIN - Alive Again",
        "hours": "Saturdays From  1:00 PM to 2:00 PM Meeting Type S = Step meeting",
        "wheelchairAccess": true
    },
    {
        "address": "61 Gramercy Park North,",
        "title": "AT BILL'S PLACE - At Bill's Place",
        "hours": "Wednesdays From  6:30 PM to 7:30 PM Meeting Type C = Closed Discussion meeting",
        "wheelchairAccess": false
    },
    {
        "address": "155 East 22nd Street, Ground Floor,",
        "title": "ATLANTIC BY THE BOOK - Atlantic By The Book",
        "hours": "Wednesdays From  7:00 PM to 8:00 PM Meeting Type BB = Big Book meeting",
        "wheelchairAccess": true
    },
    {
        "address": "127 East 22nd Street, 2nd Floor Auditorium,",
        "title": "ATLANTIC DOWNTOWN -",
        "hours": "Sundays From  7:00 PM to 8:00 PM Meeting Type O = Open meeting",
        "wheelchairAccess": true
    },
    {
        "address": "602 East 9th Street,",
        "title": "AVENUE B CLEAN AND DRY -",
        "hours": "Thursdays From  7:00 PM to 8:15 PM Meeting Type C = Closed Discussion meeting",
        "wheelchairAccess": true
    },
    {
        "address": "125 West 14th Street, Kuttner Room,",
        "title": "BIG BOOK MAGIC -",
        "hours": "Thursdays From  7:45 PM to 8:45 PM Meeting Type BB = Big Book meeting Special Interest Big Book Topic",
        "wheelchairAccess": true
    },
    {
        "address": "346 W. 20th Street,",
        "title": "CHELSEA MORNINGS -",
        "hours": "Tuesdays From  8:00 AM to 9:00 AM Meeting Type B = Beginners meeting\nMondays From  8:00 AM to 9:00 AM Meeting Type OD = Open Discussion meeting\nWednesdays From  8:00 AM to 9:00 AM Meeting Type S = Step meeting\nThursdays From  8:00 AM to 9:00 AM Meeting Type BB = Big Book meeting\nFridays From  8:00 AM to 9:00 AM Meeting Type C = Closed Discussion meeting Special Interest Meditation\nSaturdays From  8:00 AM to 9:00 AM Meeting Type OD = Open Discussion meeting",
        "wheelchairAccess": false
    },
    {
        "address": "125 West 14th Street, Ground Floor,",
        "title": "CHELSEA NOONERS - Chelsea Nooners",
        "hours": "Tuesdays From  12:00 PM to 1:00 PM Meeting Type C = Closed Discussion meeting\nThursdays From  12:00 PM to 1:00 PM Meeting Type C = Closed Discussion meeting",
        "wheelchairAccess": true
    },
    {
        "address": "414 East 14th Street, Auditorium,",
        "title": "COMPLETE ABANDON - Complete Abandon",
        "hours": "Wednesdays From  8:30 PM to 9:30 PM Meeting Type S = Step meeting",
        "wheelchairAccess": true
    },
    {
        "address": "119 Ninth Avenue,",
        "title": "COMPLETELY SOBER - Completely Sober",
        "hours": "Mondays From  6:45 PM to 8:00 PM Meeting Type OD = Open Discussion meeting",
        "wheelchairAccess": true
    },
    {
        "address": "202 West 24 Street, Mezzanine,",
        "title": "CROSSROADS -",
        "hours": "Saturdays From  4:00 PM to 5:00 PM Meeting Type O = Open meeting\nSundays From  4:00 PM to 5:00 PM Meeting Type O = Open meeting",
        "wheelchairAccess": true
    },
    {
        "address": "28 Gramercy Park South, 1st Floor,",
        "title": "EAST MEETS WEST IN SOBRIETY - East Meets West In Sobriety",
        "hours": "Wednesdays From  7:00 PM to 8:00 PM Meeting Type C = Closed Discussion meeting",
        "wheelchairAccess": true
    },
    {
        "address": "50 East 7th Street, 3rd and 4th floors,",
        "title": "EAST VILLAGE GROUP - East Village",
        "hours": "Tuesdays From  7:00 PM to 8:00 PM Meeting Type O = Open meeting\nSaturdays From  7:00 PM to 8:00 PM Meeting Type B = Beginners meeting\nSaturdays From  7:00 PM to 8:00 PM Meeting Type OD = Open Discussion meeting\nSundays From  7:00 PM to 8:00 PM Meeting Type BB = Big Book meeting\nTuesdays From  7:00 PM to 8:15 PM Meeting Type S = Step meeting\nTuesdays From  8:30 PM to 9:30 PM Meeting Type C = Closed Discussion meeting\nSaturdays From  8:30 PM to 9:30 PM Meeting Type C = Closed Discussion meeting",
        "wheelchairAccess": false
    },
    {
        "address": "273 Bowery, 2nd Floor Classroom,",
        "title": "EXPERIENCE STRENGTH AND HOPE - Experience Strength And Hope",
        "hours": "Wednesdays From  7:00 PM to 8:00 PM Meeting Type C = Closed Discussion meeting",
        "wheelchairAccess": true
    },
    {
        "address": "802 Broadway, 3rd Floor Conference Room,",
        "title": "GRACE ON BROADWAY - Grace On Broadway",
        "hours": "Mondays From  8:15 AM to 9:15 AM Meeting Type O = Open meeting\nTuesdays From  8:15 AM to 9:15 AM Meeting Type C = Closed Discussion meeting\nThursdays From  8:15 AM to 9:15 AM Meeting Type C = Closed Discussion meeting",
        "wheelchairAccess": true
    },
    {
        "address": "28 Grammercy Park South, 2nd floor,",
        "title": "GRAMERCY - Gramercy",
        "hours": "Mondays From  6:30 PM to 7:30 PM Meeting Type C = Closed Discussion meeting\nThursdays From  6:30 PM to 7:30 PM Meeting Type S = Step meeting",
        "wheelchairAccess": true
    },
    {
        "address": "209 East 16th Street, Basement,",
        "title": "GRATEFUL GROUP OF A.A. -",
        "hours": "Mondays From  5:00 PM to 6:00 PM Meeting Type B = Beginners meeting\nFridays From  5:00 PM to 6:00 PM Meeting Type BB = Big Book meeting\nTuesdays From  5:00 PM to 6:00 PM Meeting Type O = Open meeting\nThursdays From  5:00 PM to 6:00 PM Special Interest Meditation\nSundays From  5:00 PM to 6:00 PM Meeting Type O = Open meeting Special Interest Men\nWednesdays From  5:00 PM to 6:00 PM Meeting Type S = Step meeting\nMondays From  6:15 PM to 7:00 PM Meeting Type S = Step meeting Special Interest Fourth Step Workshop",
        "wheelchairAccess": false
    },
    {
        "address": "44 2nd Avenue, Main Floor,",
        "title": "GRUPO EL MILAGRO - Grupo El Milagro",
        "hours": "Sundays From  8:00 PM to 9:00 PM Meeting Type O = Open meeting",
        "wheelchairAccess": false
    },
    {
        "address": "229 West 14th Street,",
        "title": "GRUPO GRATITUD - Grupo Gratitud",
        "hours": "Mondays From  8:00 PM to 9:00 PM Meeting Type C = Closed Discussion meeting\nTuesdays From  8:00 PM to 9:00 PM Meeting Type O = Open meeting",
        "wheelchairAccess": false
    },
    {
        "address": "229 West 14th Street,",
        "title": "GRUPO SOBRIEDAD - Grupo Sobriedad",
        "hours": "Tuesdays From  1:00 PM to 2:00 PM Meeting Type C = Closed Discussion meeting",
        "wheelchairAccess": false
    },
    {
        "address": "208 West 13th Street,",
        "title": "HIGH NOON - High Noon",
        "hours": "Sundays From  12:00 PM to 1:00 PM Meeting Type O = Open meeting Special Interest Interpreted for the Deaf",
        "wheelchairAccess": true
    },
    {
        "address": "28 Gramercy Park South,",
        "title": "JUST FOR TODAY - Just For Today",
        "hours": "Tuesdays From  7:00 PM to 8:00 PM Meeting Type S = Step meeting",
        "wheelchairAccess": true
    },
    {
        "address": "208 W 13th Street, Room 212,",
        "title": "LAeX - TERMINAL UNIQUENESS -",
        "hours": "Saturdays From  8:00 PM to 9:00 PM Meeting Type O = Open meeting",
        "wheelchairAccess": true
    },
    {
        "address": "307 W. 26th St.,",
        "title": "LEARNING TO LIVE ( :1) -",
        "hours": "Thursdays From  12:00 PM to 1:00 AM Meeting Type C = Closed Discussion meeting Special Interest Promises\nMondays From  12:00 PM to 1:00 PM Meeting Type B = Beginners meeting\nTuesdays From  12:00 PM to 1:00 PM Meeting Type BB = Big Book meeting\nWednesdays From  12:00 PM to 1:00 PM Meeting Type S = Step meeting\nFridays From  12:00 PM to 1:00 PM Meeting Type OD = Open Discussion meeting",
        "wheelchairAccess": true
    },
    {
        "address": "343 West 25th Street,",
        "title": "LEARNING TO LIVE ( :II) -",
        "hours": "Mondays From  7:00 PM to 8:00 PM Meeting Type O = Open meeting",
        "wheelchairAccess": false
    },
    {
        "address": "80 St. Mark's Place, 2nd Floor,",
        "title": "LIVING NOW - Living Now     (:II)",
        "hours": "Saturdays From  10:00 AM to 11:00 AM Meeting Type O = Open meeting\nSundays From  10:00 AM to 11:00 AM Meeting Type OD = Open Discussion meeting\nSundays From  10:15 AM to 11:15 AM Meeting Type C = Closed Discussion meeting\nThursdays From  1:00 PM to 2:00 PM Meeting Type S = Step meeting\nSaturdays From  1:00 PM to 2:00 PM Meeting Type OD = Open Discussion meeting Special Interest Women\nMondays From  1:00 PM to 2:00 PM Meeting Type OD = Open Discussion meeting\nTuesdays From  1:00 PM to 2:00 PM Meeting Type O = Open meeting\nWednesdays From  1:00 PM to 2:00 PM Meeting Type OD = Open Discussion meeting\nFridays From  1:00 PM to 2:00 PM Meeting Type BB = Big Book meeting\nSundays From  2:00 PM to 3:00 PM Meeting Type BB = Big Book meeting\nSaturdays From  5:30 PM to 6:30 PM Meeting Type B = Beginners meeting\nWednesdays From  6:00 PM to 7:00 PM Meeting Type B = Beginners meeting Special Interest Beginners Workshop\nThursdays From  7:00 PM to 8:00 PM Meeting Type S = Step meeting\nTuesdays From  7:00 PM to 8:00 PM Meeting Type S = Step meeting Special Interest Fourth Step Workshop",
        "wheelchairAccess": false
    },
    {
        "address": "208 West 13th Street,",
        "title": "LIVING TODAY - Living Today",
        "hours": "Sundays From  6:45 PM to 7:45 PM Meeting Type S = Step meeting Special Interest Gay, Lesbian and Bisexual\nSundays From  8:00 PM to 9:00 PM Meeting Type O = Open meeting Special Interest Gay, Lesbian and Bisexual",
        "wheelchairAccess": true
    },
    {
        "address": "51 East 25th Street, Lower Level,",
        "title": "MADISON PARK BEGINNERS - Madison Park Beginners",
        "hours": "Wednesdays From  10:00 AM to 11:00 AM Meeting Type B = Beginners meeting\nThursdays From  5:30 PM to 6:30 PM Meeting Type B = Beginners meeting",
        "wheelchairAccess": true
    },
    {
        "address": "155 East 22nd Street, Basement,",
        "title": "MANHATTAN - Manhattan",
        "hours": "Tuesdays From  7:00 PM to 8:00 PM Meeting Type B = Beginners meeting\nFridays From  7:00 PM to 8:15 PM Meeting Type S = Step meeting",
        "wheelchairAccess": false
    },
    {
        "address": "7 East 10th Street, 2nd Floor (Note: A photo ID is required to enter the building.),",
        "title": "N.Y.U. (NOW YOU UNDERSTAND) - N.Y.U. (Now You Understand)",
        "hours": "Fridays From  12:30 PM to 1:30 PM Meeting Type S = Step meeting\nMondays From  12:30 PM to 1:30 PM Meeting Type C = Closed Discussion meeting\nTuesdays From  12:30 PM to 1:30 PM Meeting Type BB = Big Book meeting\nWednesdays From  12:30 PM to 1:30 PM Meeting Type B = Beginners meeting\nThursdays From  12:30 PM to 1:30 PM Meeting Type C = Closed Discussion meeting\nFridays From  2:00 PM to 3:00 PM Meeting Type B = Beginners meeting\nMondays From  2:00 PM to 3:00 PM Meeting Type C = Closed Discussion meeting Special Interest Promises\nTuesdays From  2:00 PM to 3:00 PM Meeting Type S = Step meeting\nWednesdays From  2:00 PM to 3:00 PM Meeting Type BB = Big Book meeting\nThursdays From  2:00 PM to 3:00 PM Meeting Type C = Closed Discussion meeting",
        "wheelchairAccess": false
    },
    {
        "address": "315 West 22nd Street, 1st Floor,",
        "title": "NEVER HAD A LEGAL DRINK - Never Had A Legal Drink",
        "hours": "Thursdays From  8:00 PM to 9:00 PM Meeting Type OD = Open Discussion meeting Special Interest Young People",
        "wheelchairAccess": false
    },
    {
        "address": "15 Rutherford Place, Basement,",
        "title": "NEW LIFE IN SOBRIETY - New Life In Sobriety",
        "hours": "Fridays From  7:00 PM to 8:00 PM Meeting Type B = Beginners meeting\nMondays From  7:00 PM to 8:30 PM Meeting Type S = Step meeting\nFridays From  8:30 PM to 9:30 PM Meeting Type C = Closed Discussion meeting",
        "wheelchairAccess": false
    },
    {
        "address": "25 East 15th- Conference Room H,",
        "title": "NINJAS IN RECOVERY -",
        "hours": "Wednesdays From  8:00 PM to 9:00 PM Meeting Type S = Step meeting",
        "wheelchairAccess": false
    },
    {
        "address": "175 9th Avenue, 1st and 2nd Floor,",
        "title": "NINTH AVENUE           (:II) - Ninth Avenue    (:II)",
        "hours": "Fridays From  6:00 PM to 7:00 PM Meeting Type B = Beginners meeting\nFridays From  6:00 PM to 7:00 PM Meeting Type C = Closed Discussion meeting\nFridays From  6:00 PM to 7:00 PM Meeting Type OD = Open Discussion meeting Special Interest Eleventh Step Meditation\nFridays From  7:15 PM to 8:15 PM Meeting Type BB = Big Book meeting\nFridays From  7:15 PM to 8:15 PM Meeting Type C = Closed Discussion meeting Special Interest H.I.V Positive\nFridays From  7:15 PM to 8:15 PM Meeting Type C = Closed Discussion meeting\nFridays From  7:15 PM to 8:15 PM Meeting Type O = Open meeting\nFridays From  8:30 PM to 9:30 PM Meeting Type C = Closed Discussion meeting",
        "wheelchairAccess": false
    },
    {
        "address": "19 Union Square West, 7th Floor, Conference Room B,",
        "title": "OADW (ONCE A DRUNK WOMAN) -",
        "hours": "Tuesdays From  8:00 PM to 9:00 PM Meeting Type C = Closed Discussion meeting Special Interest Women",
        "wheelchairAccess": true
    },
    {
        "address": "155 East 22nd Street, 1st Floor,",
        "title": "P.A.X - P.A.X",
        "hours": "Mondays From  6:45 PM to 7:45 PM Meeting Type B = Beginners meeting Special Interest Men\nMondays From  6:45 PM to 7:45 PM Meeting Type BB = Big Book meeting Special Interest Men\nTuesdays From  6:45 PM to 7:45 PM Meeting Type S = Step meeting Special Interest Men\nThursdays From  6:45 PM to 7:45 PM Meeting Type C = Closed Discussion meeting Special Interest Men\nTuesdays From  6:45 PM to 7:45 PM Meeting Type C = Closed Discussion meeting Special Interest Men",
        "wheelchairAccess": false
    },
    {
        "address": "423 East 23rd Street, 3rd fl, Conference Room 3076 south,",
        "title": "POT LUCK -",
        "hours": "Saturdays From  9:00 PM to 10:00 PM Meeting Type OD = Open Discussion meeting",
        "wheelchairAccess": true
    },
    {
        "address": "209 East 16th Street, Olmstead Hall,",
        "title": "POTPOURRI - Potpourri",
        "hours": "Mondays From  6:00 PM to 6:00 PM Meeting Type O = Open meeting\nTuesdays From  6:00 PM to 7:00 PM Meeting Type S = Step meeting\nWednesdays From  6:00 PM to 7:00 PM Meeting Type BB = Big Book meeting\nThursdays From  6:00 PM to 7:00 PM Meeting Type C = Closed Discussion meeting\nFridays From  6:00 PM to 7:00 PM Meeting Type B = Beginners meeting",
        "wheelchairAccess": false
    },
    {
        "address": "411 East 12th Street,",
        "title": "PRIMETIME NYC (II) -",
        "hours": "Sundays From  1:30 PM to 2:30 PM Meeting Type OD = Open Discussion meeting",
        "wheelchairAccess": false
    },
    {
        "address": "209 East 16th Street,",
        "title": "SATURDAY BEGINNERS - Saturday Beginners",
        "hours": "Saturdays From  10:30 AM to 11:30 AM Meeting Type B = Beginners meeting\nSaturdays From  10:30 AM to 11:30 AM Meeting Type BB = Big Book meeting",
        "wheelchairAccess": false
    },
    {
        "address": "239 East 21st Street, Church Rectory,",
        "title": "SATURDAY WEEKENDERS -",
        "hours": "Saturdays From  10:00 AM to 11:00 AM Meeting Type C = Closed Discussion meeting",
        "wheelchairAccess": false
    },
    {
        "address": "12 West 12th Street, 6th Floor-Roof Level,",
        "title": "SAVE HER A SEAT - Save Her A Seat",
        "hours": "Fridays From  6:30 PM to 7:45 PM Meeting Type B = Beginners meeting Special Interest Women\nTuesdays From  7:15 PM to 8:30 PM Meeting Type C = Closed Discussion meeting Special Interest Women",
        "wheelchairAccess": true
    },
    {
        "address": "44 2nd Avenue,",
        "title": "SECOND AVENUE CLEAN AND DRY - Second Avenue Clean And Dry",
        "hours": "Sundays From  5:00 PM to 6:00 PM Meeting Type C = Closed Discussion meeting",
        "wheelchairAccess": false
    },
    {
        "address": "208 West 13th Street,",
        "title": "SOBER MIRACLES - Sober Miracles",
        "hours": "Saturdays From  9:30 PM to 10:30 PM Meeting Type OD = Open Discussion meeting Special Interest Special Purpose Groups",
        "wheelchairAccess": false
    },
    {
        "address": "12 West 11th Street,  Ground Floor,",
        "title": "SOBRIETY ON THE SQUARE - Sobriety On The Square",
        "hours": "Mondays From  7:30 AM to 8:30 AM Meeting Type B = Beginners meeting\nTuesdays From  7:30 AM to 8:30 AM Meeting Type S = Step meeting\nWednesdays From  7:30 AM to 8:30 AM Meeting Type C = Closed Discussion meeting\nThursdays From  7:30 AM to 8:30 AM Meeting Type BB = Big Book meeting\nFridays From  7:30 AM to 8:30 AM Meeting Type OD = Open Discussion meeting\nSaturdays From  7:30 AM to 8:30 AM Meeting Type S = Step meeting",
        "wheelchairAccess": false
    },
    {
        "address": "116 West 11th Street,",
        "title": "SPEAKER MAGIC -",
        "hours": "Fridays From  7:00 PM to 8:00 PM Meeting Type O = Open meeting",
        "wheelchairAccess": false
    },
    {
        "address": "80 5th Avenue, 14th Floor, Room #1408C,",
        "title": "STRAIGHT 12 (:II)  DOWNTOWN SATURDAY NIGHT -",
        "hours": "Saturdays From  6:15 PM to 7:15 PM Meeting Type C = Closed Discussion meeting",
        "wheelchairAccess": true
    },
    {
        "address": "116 W. 11th Street, Cafeteria,",
        "title": "SUNDAY AT SIX - Sunday At Six",
        "hours": "Sundays From  6:00 PM to 7:00 PM Meeting Type BB = Big Book meeting",
        "wheelchairAccess": true
    },
    {
        "address": "155 East 22nd Street,",
        "title": "SUNDAY MORNING MEDITATION -",
        "hours": "Sundays From  9:00 AM to 10:00 AM Meeting Type C = Closed Discussion meeting Special Interest Meditation",
        "wheelchairAccess": false
    },
    {
        "address": "319 Eastr 24th Street,",
        "title": "SUNDAY NOONERS - Sunday Nooners",
        "hours": "Sundays From  12:30 PM to 1:30 PM Meeting Type OD = Open Discussion meeting",
        "wheelchairAccess": true
    },
    {
        "address": "10 East Union Square, 4th Floor, Conf.Rm.#4A18,",
        "title": "SURVIVORS IN SOBRIETY -",
        "hours": "Tuesdays From  7:00 PM to 8:00 PM Meeting Type OD = Open Discussion meeting Special Interest Special Purpose Groups",
        "wheelchairAccess": true
    },
    {
        "address": "206-208 East 11th Street,",
        "title": "SVOBODA -",
        "hours": "Sundays From  7:00 PM to 8:00 PM Meeting Type C = Closed Discussion meeting Special Interest As Bill Sees It\nMondays From  7:00 PM to 8:15 PM Meeting Type B = Beginners meeting\nTuesdays From  9:00 PM to 10:00 PM Meeting Type OD = Open Discussion meeting",
        "wheelchairAccess": false
    },
    {
        "address": "123 East 15th Street, 2nd Floor,",
        "title": "T.G.I.F. & S. - T.G.I.F. & S.",
        "hours": "Fridays From  7:30 PM to 8:30 PM Meeting Type B = Beginners meeting\nFridays From  7:30 PM to 8:30 PM Meeting Type OD = Open Discussion meeting\nSundays From  8:30 PM to 9:30 PM Meeting Type O = Open meeting\nFridays From  8:45 PM to 9:45 PM Meeting Type S = Step meeting",
        "wheelchairAccess": true
    },
    {
        "address": "411 East 12th Street, Basement,",
        "title": "THE 12th STREET WORKSHOP -",
        "hours": "s From  12:00 AM to 12:00 AM\nWednesdays From  6:15 AM to 7:15 AM Meeting Type C = Closed Discussion meeting\nThursdays From  7:30 AM to 8:30 AM Meeting Type OD = Open Discussion meeting\nWednesdays From  7:30 AM to 8:30 AM Meeting Type S = Step meeting\nTuesdays From  7:30 AM to 8:30 AM Meeting Type OD = Open Discussion meeting\nMondays From  7:30 AM to 8:30 AM Meeting Type OD = Open Discussion meeting\nSaturdays From  7:30 AM to 8:30 AM Meeting Type C = Closed Discussion meeting\nFridays From  7:30 AM to 8:30 AM Meeting Type OD = Open Discussion meeting\nSundays From  7:30 AM to 8:30 AM Meeting Type S = Step meeting\nSaturdays From  9:00 AM to 10:00 AM Meeting Type OD = Open Discussion meeting\nSundays From  9:30 AM to 10:30 AM Meeting Type OD = Open Discussion meeting\nFridays From  10:00 AM to 11:00 AM Meeting Type OD = Open Discussion meeting\nThursdays From  10:00 AM to 11:00 AM Meeting Type BB = Big Book meeting\nWednesdays From  10:00 AM to 11:00 AM Meeting Type OD = Open Discussion meeting\nTuesdays From  10:00 AM to 11:00 AM Meeting Type OD = Open Discussion meeting\nMondays From  10:00 AM to 11:00 AM Meeting Type S = Step meeting Special Interest Steps 1-2-3\nSaturdays From  10:30 AM to 11:30 AM Meeting Type S = Step meeting\nSundays From  11:00 AM to 12:00 PM Meeting Type BB = Big Book meeting\nMondays From  11:15 AM to 12:15 PM Meeting Type BB = Big Book meeting\nFridays From  12:30 PM to 1:30 PM Meeting Type OD = Open Discussion meeting\nThursdays From  12:30 PM to 1:30 PM Meeting Type B = Beginners meeting\nWednesdays From  12:30 PM to 1:30 PM Meeting Type B = Beginners meeting\nTuesdays From  12:30 PM to 1:30 PM Meeting Type BB = Big Book meeting\nMondays From  12:30 PM to 1:30 PM Meeting Type S = Step meeting\nSaturdays From  1:15 PM to 2:15 PM Meeting Type C = Closed Discussion meeting Special Interest Sponsorship Workshop\nSundays From  1:30 PM to 2:30 PM Meeting Type OD = Open Discussion meeting\nMondays From  2:00 PM to 3:00 PM Meeting Type S = Step meeting\nFridays From  2:00 PM to 3:00 PM Meeting Type S = Step meeting\nThursdays From  2:00 PM to 3:00 PM Meeting Type OD = Open Discussion meeting\nWednesdays From  2:00 PM to 3:00 PM Meeting Type O = Open meeting\nTuesdays From  2:00 PM to 3:00 PM Meeting Type OD = Open Discussion meeting\nSaturdays From  2:30 PM to 3:30 PM Meeting Type B = Beginners meeting\nSundays From  3:00 PM to 4:00 PM Meeting Type S = Step meeting Special Interest Fourth Step Workshop\nMondays From  4:00 PM to 5:00 PM Meeting Type OD = Open Discussion meeting\nFridays From  4:00 PM to 5:00 PM Meeting Type OD = Open Discussion meeting\nThursdays From  4:00 PM to 5:00 PM Meeting Type OD = Open Discussion meeting\nWednesdays From  4:00 PM to 5:00 PM Meeting Type OD = Open Discussion meeting\nTuesdays From  4:00 PM to 5:00 PM Meeting Type OD = Open Discussion meeting\nSaturdays From  4:30 PM to 5:30 PM Meeting Type OD = Open Discussion meeting\nSundays From  4:30 PM to 5:30 PM Meeting Type OD = Open Discussion meeting\nMondays From  5:30 PM to 6:30 PM Meeting Type C = Closed Discussion meeting\nFridays From  5:30 PM to 6:30 PM Meeting Type S = Step meeting\nThursdays From  5:30 PM to 6:30 PM Meeting Type O = Open meeting\nWednesdays From  5:30 PM to 6:30 PM Meeting Type OD = Open Discussion meeting\nTuesdays From  5:30 PM to 6:30 PM Meeting Type S = Step meeting Special Interest First Step Workshop\nSaturdays From  6:00 PM to 7:00 PM Meeting Type B = Beginners meeting\nSundays From  6:00 PM to 7:00 PM Meeting Type OD = Open Discussion meeting Special Interest Gay Men\nTuesdays From  7:00 PM to 8:00 AM Meeting Type S = Step meeting\nMondays From  7:00 PM to 8:00 PM Meeting Type T = Tradition meeting\nFridays From  7:00 PM to 8:00 PM Meeting Type S = Step meeting\nThursdays From  7:00 PM to 8:00 PM Meeting Type BB = Big Book meeting\nWednesdays From  7:00 PM to 8:00 PM Meeting Type C = Closed Discussion meeting\nSundays From  7:30 PM to 8:30 PM Meeting Type S = Step meeting\nSaturdays From  8:00 PM to 9:00 PM Meeting Type C = Closed Discussion meeting Special Interest Promises\nMondays From  8:15 PM to 9:15 PM Meeting Type OD = Open Discussion meeting\nThursdays From  8:15 PM to 9:15 PM Meeting Type C = Closed Discussion meeting Special Interest Women\nWednesdays From  8:30 PM to 9:30 PM Meeting Type S = Step meeting\nTuesdays From  8:30 PM to 9:30 PM Meeting Type C = Closed Discussion meeting Special Interest Living Sober\nFridays From  8:30 PM to 9:30 PM Meeting Type B = Beginners meeting Special Interest First Step Workshop",
        "wheelchairAccess": false
    },
    {
        "address": "125 West 14th Street, 1st Floor Meeting Room,",
        "title": "THE FELLOWSHIP CLUB - Fellowship Club",
        "hours": "Fridays From  7:00 PM to 8:00 PM Meeting Type B = Beginners meeting",
        "wheelchairAccess": true
    },
    {
        "address": "208 West 13th Street,",
        "title": "TRANSGENDER FOCUS -",
        "hours": "Sundays From  4:00 PM to 5:00 PM Meeting Type C = Closed Discussion meeting",
        "wheelchairAccess": true
    },
    {
        "address": "10 Union Square East, 2nd Floor, Conference Room #3,",
        "title": "TWELVE AT SIX - Twelve At Six",
        "hours": "Fridays From  6:00 PM to 7:00 PM Meeting Type S = Step meeting",
        "wheelchairAccess": true
    },
    {
        "address": "155 West 22nd Street, 1st Floor,",
        "title": "UPON AWAKENING -",
        "hours": "Sundays From  12:45 PM to 1:45 PM Meeting Type S = Step meeting Special Interest Eleventh Step",
        "wheelchairAccess": true
    },
    {
        "address": "208 West 13th Street,",
        "title": "VILLAGE AGNOSTICS - Village Agnostics",
        "hours": "Sundays From  4:00 PM to 5:00 PM Meeting Type C = Closed Discussion meeting Special Interest Agnostic\nSundays From  5:30 PM to 6:30 PM Meeting Type S = Step meeting Special Interest Agnostic",
        "wheelchairAccess": false
    },
    {
        "address": "12 West 12th Street, Third Floor,",
        "title": "VILLAGE OPEN DISCUSSION  (V.O.D.) - Village Open Discussion",
        "hours": "Tuesdays From  6:30 PM to 7:30 PM Meeting Type OD = Open Discussion meeting",
        "wheelchairAccess": true
    },
    {
        "address": "20 Washington Square North, 2nd Floor,",
        "title": "VILLAGE SOBER - OVER & UNDER 60 -",
        "hours": "Thursdays From  3:30 PM to 4:30 PM Meeting Type C = Closed Discussion meeting",
        "wheelchairAccess": true
    },
    {
        "address": "344 East 14th Street,",
        "title": "WEEKENDERS -",
        "hours": "Sundays From  10:00 AM to 11:00 AM Meeting Type S = Step meeting",
        "wheelchairAccess": true
    },
    {
        "address": "155 West 22nd Street, 1st Floor,",
        "title": "WEST 22nd STREET SOBRIETY - West 22nd Street Sobriety",
        "hours": "Tuesdays From  6:00 PM to 7:00 PM Meeting Type C = Closed Discussion meeting",
        "wheelchairAccess": false
    },
    {
        "address": "208 West 13th Street,",
        "title": "WESTWINGERS - Westwingers    (:I)",
        "hours": "Tuesdays From  7:30 PM to 8:30 PM Meeting Type OD = Open Discussion meeting Special Interest Gay, Lesbian and Bisexual\nThursdays From  9:00 PM to 10:00 PM Meeting Type OD = Open Discussion meeting Special Interest Gay, Lesbian and Bisexual",
        "wheelchairAccess": true
    },
    {
        "address": "602 East 9th Street, Ground Floor,",
        "title": "WHOLESALE MIRACLES -",
        "hours": "Tuesdays From  7:30 PM to 8:30 PM Meeting Type BB = Big Book meeting",
        "wheelchairAccess": true
    },
    {
        "address": "208 West 13th Street,",
        "title": "WOMEN NOW - Women Now",
        "hours": "Tuesdays From  6:00 PM to 7:00 PM Meeting Type C = Closed Discussion meeting",
        "wheelchairAccess": false
    },
    {
        "address": "208 West 13th Street,",
        "title": "WOMEN TOGETHER                      (:I) - Women Together    (:I)",
        "hours": "Saturdays From  6:00 PM to 7:00 PM Meeting Type C = Closed Discussion meeting Special Interest Lesbian",
        "wheelchairAccess": true
    },
    {
        "address": "19 Union Square West, 7th Floor, Ask for room #.,",
        "title": "WOMEN'S SATURDAY ELEVENTH STEP MEDITATION - Women's Saturday Eleventh Step Meditation",
        "hours": "Saturdays From  11:00 AM to 12:00 PM Meeting Type C = Closed Discussion meeting",
        "wheelchairAccess": true
    },
    {
        "address": "173 East 3rd Street- basement,",
        "title": "WORKS IN PROGRESS -",
        "hours": "Mondays From  7:00 PM to 8:00 PM Meeting Type OD = Open Discussion meeting Special Interest AA Literature",
        "wheelchairAccess": false
    },
    {
        "address": "50 East 7th Street,",
        "title": "YOUNG AND WISE - Young And Wise",
        "hours": "Fridays From  8:00 PM to 9:30 PM Meeting Type C = Closed Discussion meeting Special Interest Young People",
        "wheelchairAccess": false
    }
]