[
    {
        "address": "35 East 125 Street, 1st Floor Conference Room,",
        "title": "125 - TWO FOR ONE -",
        "hours": "Saturdays From  4:15 PM to 5:30 PM Meeting Type B = Beginners meeting",
        "wheelchairAccess": true
    },
    {
        "address": "223 East 117th Street, 1st Floor Dining Room,",
        "title": "EAST HARLEM - East Harlem",
        "hours": "Tuesdays From  6:30 PM to 7:30 PM Meeting Type B = Beginners meeting Special Interest Living Sober",
        "wheelchairAccess": true
    },
    {
        "address": "2126 2nd Avenue, 1st Floor,",
        "title": "GRUPO NUEVA VIDA - Grupo Nueva Vida",
        "hours": "Sundays From  5:00 PM to 6:00 PM Meeting Type OD = Open Discussion meeting\nMondays From  8:00 PM to 9:00 PM Meeting Type B = Beginners meeting\nTuesdays From  8:00 PM to 9:00 PM Meeting Type OD = Open Discussion meeting\nWednesdays From  8:00 PM to 9:00 PM Meeting Type C = Closed Discussion meeting\nThursdays From  8:00 PM to 9:00 PM Meeting Type OD = Open Discussion meeting\nFridays From  8:00 PM to 9:00 PM Meeting Type OD = Open Discussion meeting\nSaturdays From  8:00 PM to 9:00 PM Meeting Type OD = Open Discussion meeting",
        "wheelchairAccess": true
    },
    {
        "address": "22 East 119th Street,  1st Floor Cafeteria,",
        "title": "HARLEM 1 PM RECOVERY - Harlem 1 PM Recovery",
        "hours": "Sundays From  1:00 PM to 2:00 PM Meeting Type T = Tradition meeting\nMondays From  1:00 PM to 2:00 PM Meeting Type B = Beginners meeting",
        "wheelchairAccess": true
    }
]